City,Lat,Long,Max Temp,Humidity,Cloudiness,Wind Speed,Country,Datetime
Nanortalik,60.1432,-45.2371,33.69,69,100,1.3,GL,1621747565
George Town,5.4112,100.3354,91.35,66,20,8.05,MY,1621747389
George Town,5.4112,100.3354,91.35,66,20,8.05,MY,1621747389
Qaanaaq,77.484,-69.3632,18.14,76,82,6.26,GL,1621747357
Hermanus,-34.4187,19.2345,59.9,50,32,7.65,ZA,1621747365
Nanortalik,60.1432,-45.2371,33.69,69,100,1.3,GL,1621747565
Lukovetskiy,64.2956,41.9211,42.78,79,99,12.46,RU,1621747566
Thompson,55.7435,-97.8558,37.56,60,20,3.44,CA,1621747452
Busselton,-33.65,115.3333,54.09,81,88,20.87,AU,1621747363
Ushuaia,-54.8,-68.3,35.26,93,90,1.14,AR,1621747268
Cape Town,-33.9258,18.4232,60.12,41,0,4.36,ZA,1621747195
Padang,-0.9492,100.3543,87.85,63,47,6.08,ID,1621747433
Birao,10.2849,22.7882,78.55,57,4,4.52,CF,1621747566
Dingle,10.9995,122.6711,89.91,59,28,8.7,PH,1621747363
Sistranda,63.7256,8.834,52.9,80,84,4.92,NO,1621747362
Tiksi,71.6872,128.8694,30.9,76,71,5.77,RU,1621747447
Mataura,-46.1927,168.8643,49.48,91,3,0.51,NZ,1621747356
Requena,39.4883,-1.1004,57.13,83,100,8.28,ES,1621747567
Makakilo City,21.3469,-158.0858,77.32,61,75,4.61,US,1621747567
Vaini,-21.2,-175.2,77.16,94,75,2.3,TO,1621747374
New Norfolk,-42.7826,147.0587,66.58,63,41,1.01,AU,1621747373
Quang Ngai,15.1167,108.8,96.94,44,81,11.77,VN,1621747494
São Miguel do Tapuio,-5.5036,-41.3233,70.43,75,17,1.63,BR,1621747568
Hithadhoo,-0.6,73.0833,84.38,66,94,9.42,MV,1621747274
Eydhafushi,5.1033,73.0708,83.93,76,97,20.36,MV,1621747274
Ushuaia,-54.8,-68.3,35.26,93,90,1.14,AR,1621747268
Buin,-33.7333,-70.75,55.06,52,0,4.9,CL,1621747442
Thompson,55.7435,-97.8558,37.56,60,20,3.44,CA,1621747452
Rikitea,-23.1203,-134.9692,75.24,74,3,11.56,PF,1621747357
Hobart,-42.8794,147.3294,66.92,59,75,4.61,AU,1621747357
Hilo,19.7297,-155.09,73.8,94,90,5.75,US,1621747419
Puerto Ayora,-0.7393,-90.3518,73.54,88,27,4.0,EC,1621747368
Bay Roberts,47.5999,-53.2648,57.65,94,100,8.01,CA,1621747569
Kapaa,22.0752,-159.319,78.78,59,90,9.42,US,1621747390
Ushuaia,-54.8,-68.3,35.26,93,90,1.14,AR,1621747268
Margate,51.3813,1.3862,45.7,83,60,1.99,GB,1621747438
Smithers,54.7804,-127.1743,50.32,53,1,4.61,CA,1621747570
Coyhaique,-45.5752,-72.0662,44.55,93,75,2.3,CL,1621747570
Saint Paul Harbor,57.79,-152.4072,51.31,66,1,5.75,US,1621747376
Bethel,41.3712,-73.414,74.91,82,1,0.0,US,1621747389
Khatanga,71.9667,102.5,34.95,99,100,7.76,RU,1621747359
Hellvik,59.9156,5.781,53.78,83,94,1.66,NO,1621747571
Busselton,-33.65,115.3333,54.09,81,88,20.87,AU,1621747363
Nome,64.5011,-165.4064,34.16,86,90,4.61,US,1621747149
Grindavik,63.8424,-22.4338,40.95,76,0,7.0,IS,1621747407
Airai,-8.9266,125.4092,75.06,48,25,3.29,TL,1621747426
Codrington,-38.2667,141.9667,66.99,38,35,7.65,AU,1621747405
Port Alfred,-33.5906,26.891,55.44,58,1,8.28,ZA,1621747361
Nouadhibou,20.931,-17.0347,64.56,97,7,15.61,MR,1621747391
Abhā,18.2164,42.5053,75.02,43,0,2.98,SA,1621747572
Chokurdakh,70.6333,147.9167,31.44,91,85,5.59,RU,1621747406
Hasaki,35.7333,140.8333,78.19,65,16,5.44,JP,1621747389
Catuday,16.2923,119.8062,84.4,69,31,5.55,PH,1621747573
Cape Town,-33.9258,18.4232,60.12,41,0,4.36,ZA,1621747195
Chokurdakh,70.6333,147.9167,31.44,91,85,5.59,RU,1621747406
Port Elizabeth,-33.918,25.5701,44.89,81,0,3.44,ZA,1621747153
Pevek,69.7008,170.3133,31.55,86,100,1.3,RU,1621747367
Rikitea,-23.1203,-134.9692,75.24,74,3,11.56,PF,1621747357
Fort Nelson,58.8053,-122.7002,62.19,34,75,4.61,CA,1621747393
Tuktoyaktuk,69.4541,-133.0374,35.26,88,35,11.79,CA,1621747386
Ushuaia,-54.8,-68.3,35.26,93,90,1.14,AR,1621747268
Gao,16.6362,1.637,87.55,28,17,5.23,ML,1621747574
Punta Arenas,-53.15,-70.9167,37.51,89,90,6.02,CL,1621747339
Port Alfred,-33.5906,26.891,55.44,58,1,8.28,ZA,1621747361
Bluff,-46.6,168.3333,49.8,91,17,13.67,NZ,1621747357
Saint George,37.1041,-113.5841,61.39,31,1,1.01,US,1621747261
Kaniama,-7.5667,24.1833,63.18,60,74,5.28,CD,1621747574
Severo-Kuril'sk,50.6789,156.125,45.75,66,9,2.73,RU,1621747423
Sola,-13.8833,167.55,79.77,70,95,13.58,VU,1621747575
Mataura,-46.1927,168.8643,49.48,91,3,0.51,NZ,1621747356
Hilo,19.7297,-155.09,73.8,94,90,5.75,US,1621747419
Yellowknife,62.456,-114.3525,55.29,54,20,5.75,CA,1621747364
Comrie,56.3791,-3.9949,42.31,87,100,2.53,GB,1621747576
Atuona,-9.8,-139.0333,79.92,75,13,18.39,PF,1621747410
Swan River,52.1058,-101.2676,40.89,81,100,5.75,CA,1621747577
Pokhara,28.2333,83.9833,87.49,43,0,7.43,NP,1621746789
Tondela,40.5167,-8.0833,46.58,92,0,3.33,PT,1621747577
Nikolskoye,59.7035,30.7861,53.4,98,92,5.39,RU,1621747403
Jamestown,42.097,-79.2353,67.64,68,40,8.05,US,1621747358
Mataura,-46.1927,168.8643,49.48,91,3,0.51,NZ,1621747356
Sørland,67.667,12.6934,42.04,65,100,18.57,NO,1621747578
Punta Arenas,-53.15,-70.9167,37.51,89,90,6.02,CL,1621747339
Baker City,44.7749,-117.8344,45.12,87,90,6.91,US,1621747578
Albany,42.6001,-73.9662,70.81,60,37,7.0,US,1621747105
Aldan,58.6031,125.3894,44.62,47,100,15.21,RU,1621747579
Luwuk,-0.9516,122.7875,83.89,81,91,5.06,ID,1621747579
Jamestown,42.097,-79.2353,67.64,68,40,8.05,US,1621747358
East London,-33.0153,27.9116,52.74,66,0,9.22,ZA,1621747383
Kilgore,32.3863,-94.8758,71.58,95,90,5.06,US,1621747328
Marsh Harbour,26.5412,-77.0636,73.76,63,77,15.99,BS,1621747580
Ushuaia,-54.8,-68.3,35.26,93,90,1.14,AR,1621747268
Naze,28.3667,129.4833,68.92,93,100,11.63,JP,1621747339
Busselton,-33.65,115.3333,54.09,81,88,20.87,AU,1621747363
Chui,-33.6971,-53.4616,51.78,92,79,18.9,UY,1621747370
Morro Agudo,-20.7314,-48.0578,60.82,97,100,2.8,BR,1621747581
Chui,-33.6971,-53.4616,51.78,92,79,18.9,UY,1621747370
Kiunga,-6.1219,141.2906,80.96,93,89,1.77,PG,1621747581
Whitehorse,60.7161,-135.0538,46.02,61,75,2.3,CA,1621747581
Beringovskiy,63.05,179.3167,31.57,89,99,3.96,RU,1621747582
Ushuaia,-54.8,-68.3,35.26,93,90,1.14,AR,1621747268
Bluff,-46.6,168.3333,49.8,91,17,13.67,NZ,1621747357
Ushuaia,-54.8,-68.3,35.26,93,90,1.14,AR,1621747268
Zhalantun,48.0,122.7167,60.73,30,100,20.24,CN,1621747520
Norman Wells,65.282,-126.8329,48.24,93,90,3.44,CA,1621747487
Yellowknife,62.456,-114.3525,55.29,54,20,5.75,CA,1621747364
Chifeng,42.2683,118.9636,67.32,12,40,24.38,CN,1621747583
Port Blair,11.6667,92.75,79.88,92,100,17.45,IN,1621747394
Thompson,55.7435,-97.8558,37.56,60,20,3.44,CA,1621747452
Ketchikan,55.3422,-131.6461,50.47,87,90,0.0,US,1621747583
Hervey Bay,-25.2986,152.8535,75.31,63,17,5.99,AU,1621747398
George Town,5.4112,100.3354,91.35,66,20,8.05,MY,1621747389
Carnarvon,-24.8667,113.6333,71.67,78,75,14.97,AU,1621747395
Mataura,-46.1927,168.8643,49.48,91,3,0.51,NZ,1621747356
Hithadhoo,-0.6,73.0833,84.38,66,94,9.42,MV,1621747274
Krasnosel'kup,65.7,82.4667,69.06,49,100,12.03,RU,1621747449
Lethem,3.3803,-59.7968,76.06,90,72,7.27,GY,1621747584
Taltal,-25.4,-70.4833,61.92,63,51,2.46,CL,1621747584
Mataura,-46.1927,168.8643,49.48,91,3,0.51,NZ,1621747356
Prome,18.8167,95.2167,90.41,53,88,15.48,MM,1621747585
Albany,42.6001,-73.9662,70.81,60,37,7.0,US,1621747105
Sur,22.5667,59.5289,94.53,42,1,3.4,OM,1621747381
Vardø,70.3705,31.1107,35.01,59,100,14.14,NO,1621747413
Lüderitz,-26.6481,15.1594,70.14,34,48,13.11,NA,1621747403
Ushuaia,-54.8,-68.3,35.26,93,90,1.14,AR,1621747268
East London,-33.0153,27.9116,52.74,66,0,9.22,ZA,1621747383
Albany,42.6001,-73.9662,70.81,60,37,7.0,US,1621747105
Punta Arenas,-53.15,-70.9167,37.51,89,90,6.02,CL,1621747339
Ushuaia,-54.8,-68.3,35.26,93,90,1.14,AR,1621747268
Pirgos,35.1167,25.7178,69.94,46,2,6.17,GR,1621747586
Nikolskoye,59.7035,30.7861,53.4,98,92,5.39,RU,1621747403
Khandyga,62.6667,135.6,59.02,26,57,0.25,RU,1621747587
Severo-Kuril'sk,50.6789,156.125,45.75,66,9,2.73,RU,1621747423
Rikitea,-23.1203,-134.9692,75.24,74,3,11.56,PF,1621747357
Nikolskoye,59.7035,30.7861,53.4,98,92,5.39,RU,1621747403
Avarua,-21.2078,-159.775,77.05,73,95,12.66,CK,1621747368
Iāwar,23.0,76.5,94.28,25,36,11.63,IN,1621747587
Sisimiut,66.9395,-53.6735,29.71,73,100,14.09,GL,1621747588
Mataura,-46.1927,168.8643,49.48,91,3,0.51,NZ,1621747356
George Town,5.4112,100.3354,91.35,66,20,8.05,MY,1621747389
Honningsvåg,70.9821,25.9704,34.41,55,97,6.38,NO,1621747562
Albany,42.6001,-73.9662,70.81,60,37,7.0,US,1621747105
Hobart,-42.8794,147.3294,66.92,59,75,4.61,AU,1621747357
East London,-33.0153,27.9116,52.74,66,0,9.22,ZA,1621747383
Wewak,-3.5534,143.6268,84.94,75,100,5.08,PG,1621747589
Mataura,-46.1927,168.8643,49.48,91,3,0.51,NZ,1621747356
Dikson,73.5069,80.5464,34.27,98,100,25.01,RU,1621747445
Punta Arenas,-53.15,-70.9167,37.51,89,90,6.02,CL,1621747339
Atuona,-9.8,-139.0333,79.92,75,13,18.39,PF,1621747410
Ratnagiri,16.9833,73.3,86.43,66,9,7.85,IN,1621747589
Saint Paul Harbor,57.79,-152.4072,51.31,66,1,5.75,US,1621747376
Bredasdorp,-34.5322,20.0403,43.92,66,24,4.85,ZA,1621747363
Barrow,71.2906,-156.7887,33.82,86,90,13.8,US,1621747362
Te Anau,-45.4167,167.7167,46.62,86,2,1.14,NZ,1621747590
Pinar del Río,22.4175,-83.6981,72.19,75,100,10.25,CU,1621747590
Rikitea,-23.1203,-134.9692,75.24,74,3,11.56,PF,1621747357
Avarua,-21.2078,-159.775,77.05,73,95,12.66,CK,1621747368
Puerto Ayora,-0.7393,-90.3518,73.54,88,27,4.0,EC,1621747368
Cape Town,-33.9258,18.4232,60.12,41,0,4.36,ZA,1621747195
Le Portel,50.7056,1.5757,49.69,67,20,18.77,FR,1621747591
Elizabeth City,36.2946,-76.2511,76.01,63,1,1.99,US,1621747591
Ondjiva,-17.0667,15.7333,53.47,52,1,7.43,AO,1621747592
Vaini,-21.2,-175.2,77.16,94,75,2.3,TO,1621747374
Arraial do Cabo,-22.9661,-42.0278,73.72,77,94,3.15,BR,1621747422
Opuwo,-18.0607,13.84,58.3,45,0,10.49,NA,1621747592
Sioux Lookout,50.1001,-91.917,43.18,93,90,6.91,CA,1621747381
Bluff,-46.6,168.3333,49.8,91,17,13.67,NZ,1621747357
Mataura,-46.1927,168.8643,49.48,91,3,0.51,NZ,1621747356
La Providencia,28.7167,-111.5833,77.85,23,0,8.01,MX,1621747593
Punta Arenas,-53.15,-70.9167,37.51,89,90,6.02,CL,1621747339
Thompson,55.7435,-97.8558,37.56,60,20,3.44,CA,1621747452
East London,-33.0153,27.9116,52.74,66,0,9.22,ZA,1621747383
Rocha,-34.4833,-54.3333,49.42,95,100,10.36,UY,1621747406
Egvekinot,66.3167,-179.1667,29.34,95,95,1.43,RU,1621747594
Hobart,-42.8794,147.3294,66.92,59,75,4.61,AU,1621747357
Samarai,-10.6167,150.6667,80.65,67,99,12.26,PG,1621747594
Khatanga,71.9667,102.5,34.95,99,100,7.76,RU,1621747359
Busselton,-33.65,115.3333,54.09,81,88,20.87,AU,1621747363
Peniche,39.3558,-9.3811,57.11,69,3,21.41,PT,1621747595
Longyearbyen,78.2186,15.6401,20.43,83,27,2.13,SJ,1621747392
Vaini,-21.2,-175.2,77.16,94,75,2.3,TO,1621747374
East London,-33.0153,27.9116,52.74,66,0,9.22,ZA,1621747383
Castro,-24.7911,-50.0119,60.89,95,98,8.16,BR,1621747374
Noyabrsk,63.1994,75.4507,59.92,82,100,22.06,RU,1621747595
Vardø,70.3705,31.1107,35.01,59,100,14.14,NO,1621747413
Cabo San Lucas,22.8909,-109.9124,79.81,62,70,14.36,MX,1621747259
Vaini,-21.2,-175.2,77.16,94,75,2.3,TO,1621747374
Raudeberg,61.9875,5.1352,51.87,81,100,6.38,NO,1621747596
Saskylakh,71.9167,114.0833,34.77,100,71,12.53,RU,1621747361
Comodoro Rivadavia,-45.8667,-67.5,44.46,81,0,2.3,AR,1621747400
Te Anau,-45.4167,167.7167,46.62,86,2,1.14,NZ,1621747590
New Norfolk,-42.7826,147.0587,66.58,63,41,1.01,AU,1621747373
Avarua,-21.2078,-159.775,77.05,73,95,12.66,CK,1621747368
Albany,42.6001,-73.9662,70.81,60,37,7.0,US,1621747105
Hermanus,-34.4187,19.2345,59.9,50,32,7.65,ZA,1621747365
Saskylakh,71.9167,114.0833,34.77,100,71,12.53,RU,1621747361
George Town,5.4112,100.3354,91.35,66,20,8.05,MY,1621747389
Kapaa,22.0752,-159.319,78.78,59,90,9.42,US,1621747390
Tuatapere,-46.1333,167.6833,49.82,87,15,5.77,NZ,1621747597
Necochea,-38.5473,-58.7368,56.03,84,100,27.34,AR,1621747598
Carnarvon,-24.8667,113.6333,71.67,78,75,14.97,AU,1621747395
Busselton,-33.65,115.3333,54.09,81,88,20.87,AU,1621747363
Saldanha,-33.0117,17.9442,57.94,46,95,8.68,ZA,1621747212
Saint-Philippe,-21.3585,55.7679,76.55,62,45,11.56,RE,1621747370
Bubaque,11.2833,-15.8333,78.4,76,63,9.66,GW,1621747598
The Valley,18.217,-63.0578,80.1,80,87,19.24,AI,1621747579
Collie,-33.3667,116.15,51.98,60,84,10.31,AU,1621747599
Butaritari,3.0707,172.7902,83.44,80,100,18.86,KI,1621747371
Rikitea,-23.1203,-134.9692,75.24,74,3,11.56,PF,1621747357
Sète,43.4018,3.6966,55.36,61,84,12.3,FR,1621747600
Atar,20.5169,-13.0499,78.01,40,0,4.03,MR,1621747447
Sabang,5.8933,95.3214,84.2,74,100,13.69,ID,1621747600
San Jose,37.3394,-121.895,57.34,75,20,6.91,US,1621747519
Cabo San Lucas,22.8909,-109.9124,79.81,62,70,14.36,MX,1621747259
Lavaca,28.615,-96.6261,76.21,87,100,11.32,US,1621747601
Port Elizabeth,-33.918,25.5701,44.89,81,0,3.44,ZA,1621747153
Albany,42.6001,-73.9662,70.81,60,37,7.0,US,1621747105
Hermanus,-34.4187,19.2345,59.9,50,32,7.65,ZA,1621747365
Atuona,-9.8,-139.0333,79.92,75,13,18.39,PF,1621747410
Ankang,32.68,109.0172,61.86,80,100,3.56,CN,1621747565
Hobart,-42.8794,147.3294,66.92,59,75,4.61,AU,1621747357
Kruisfontein,-34.0033,24.7314,50.09,57,62,7.67,ZA,1621747397
Hermanus,-34.4187,19.2345,59.9,50,32,7.65,ZA,1621747365
Rikitea,-23.1203,-134.9692,75.24,74,3,11.56,PF,1621747357
Hermanus,-34.4187,19.2345,59.9,50,32,7.65,ZA,1621747365
Barrow,71.2906,-156.7887,33.82,86,90,13.8,US,1621747362
General Pico,-35.6566,-63.7568,50.68,84,100,14.47,AR,1621747602
Imuris,30.7833,-110.8667,57.52,19,0,1.9,MX,1621747602
Punta Arenas,-53.15,-70.9167,37.51,89,90,6.02,CL,1621747339
Puerto Ayora,-0.7393,-90.3518,73.54,88,27,4.0,EC,1621747368
Cherskiy,68.75,161.3,40.6,55,70,3.2,RU,1621747365
Aleksandrov Gay,50.147,48.5704,82.29,32,68,15.77,RU,1621747603
Chui,-33.6971,-53.4616,51.78,92,79,18.9,UY,1621747370
Lüderitz,-26.6481,15.1594,70.14,34,48,13.11,NA,1621747403
Turbat,26.0023,63.044,100.54,6,0,9.04,PK,1621747604
Lufilufi,-13.8745,-171.5986,82.18,75,12,9.15,WS,1621747604
Kirakira,-10.4544,161.9205,81.0,86,100,9.93,SB,1621747509
Avarua,-21.2078,-159.775,77.05,73,95,12.66,CK,1621747368
Punta Arenas,-53.15,-70.9167,37.51,89,90,6.02,CL,1621747339
Tuktoyaktuk,69.4541,-133.0374,35.26,88,35,11.79,CA,1621747386
Atuona,-9.8,-139.0333,79.92,75,13,18.39,PF,1621747410
Tiarei,-17.5333,-149.3333,80.62,74,41,15.9,PF,1621747605
Alofi,-19.0595,-169.9187,80.49,89,92,4.61,NU,1621747369
Ponta do Sol,32.6667,-17.1,64.0,76,91,10.11,PT,1621747366
Quatre Cocos,-20.2078,57.7625,76.08,70,23,16.98,MU,1621747606
Hilo,19.7297,-155.09,73.8,94,90,5.75,US,1621747419
Flinders,-34.5833,150.8552,68.2,72,21,5.01,AU,1621747437
Hermanus,-34.4187,19.2345,59.9,50,32,7.65,ZA,1621747365
Hermanus,-34.4187,19.2345,59.9,50,32,7.65,ZA,1621747365
Samaná,19.2056,-69.3369,72.9,92,100,8.41,DO,1621747606
Vestmannaeyjar,63.4427,-20.2734,40.5,78,83,5.1,IS,1621747607
Vaini,-21.2,-175.2,77.16,94,75,2.3,TO,1621747374
Mar del Plata,-38.0023,-57.5575,57.09,63,90,1.01,AR,1621747400
Ribeira Grande,38.5167,-28.7,58.57,62,14,4.63,PT,1621747373
Kapaa,22.0752,-159.319,78.78,59,90,9.42,US,1621747390
Longyearbyen,78.2186,15.6401,20.43,83,27,2.13,SJ,1621747392
Rikitea,-23.1203,-134.9692,75.24,74,3,11.56,PF,1621747357
Port Alfred,-33.5906,26.891,55.44,58,1,8.28,ZA,1621747361
Tuktoyaktuk,69.4541,-133.0374,35.26,88,35,11.79,CA,1621747386
Mataura,-46.1927,168.8643,49.48,91,3,0.51,NZ,1621747356
Saldanha,-33.0117,17.9442,57.94,46,95,8.68,ZA,1621747212
Punta Arenas,-53.15,-70.9167,37.51,89,90,6.02,CL,1621747339
Tasiilaq,65.6145,-37.6368,30.36,91,100,1.72,GL,1621747373
Guerrero Negro,27.9769,-114.0611,58.82,71,0,19.01,MX,1621747608
Busselton,-33.65,115.3333,54.09,81,88,20.87,AU,1621747363
Yabēlo,4.8833,38.0833,60.03,80,90,9.69,ET,1621747609
Vaini,-21.2,-175.2,77.16,94,75,2.3,TO,1621747374
Bambous Virieux,-20.3428,57.7575,76.21,70,40,16.73,MU,1621747400
São Filipe,14.8961,-24.4956,72.18,81,5,9.48,CV,1621747609
Namatanai,-3.6667,152.4333,81.27,83,91,7.94,PG,1621747609
Zhuanghe,39.7008,122.9911,62.29,83,100,4.76,CN,1621747610
Khatanga,71.9667,102.5,34.95,99,100,7.76,RU,1621747359
Søgne,58.0833,7.8167,50.7,1,100,15.35,NO,1621747610
Amapá,1.0,-52.0,71.73,100,85,1.34,BR,1621747611
Rawson,-43.3002,-65.1023,50.54,65,1,8.66,AR,1621747399
Punta Arenas,-53.15,-70.9167,37.51,89,90,6.02,CL,1621747339
Bambous Virieux,-20.3428,57.7575,76.21,70,40,16.73,MU,1621747400
Busselton,-33.65,115.3333,54.09,81,88,20.87,AU,1621747363
Yellowknife,62.456,-114.3525,55.29,54,20,5.75,CA,1621747364
Yellowknife,62.456,-114.3525,55.29,54,20,5.75,CA,1621747364
Namatanai,-3.6667,152.4333,81.27,83,91,7.94,PG,1621747609
Olafsvik,64.8945,-23.7142,40.98,77,83,16.46,IS,1621747612
Lalín,42.7167,-8.1167,44.76,98,34,1.23,ES,1621747612
Beringovskiy,63.05,179.3167,31.57,89,99,3.96,RU,1621747582
Guerrero Negro,27.9769,-114.0611,58.82,71,0,19.01,MX,1621747608
Brae,60.3964,-1.353,44.51,73,9,2.77,GB,1621747612
Mitsamiouli,-11.3847,43.2844,78.98,63,94,11.12,KM,1621747382
Fort Nelson,58.8053,-122.7002,62.19,34,75,4.61,CA,1621747393
Yellowknife,62.456,-114.3525,55.29,54,20,5.75,CA,1621747364
Hermanus,-34.4187,19.2345,59.9,50,32,7.65,ZA,1621747365
Rikitea,-23.1203,-134.9692,75.24,74,3,11.56,PF,1621747357
Rikitea,-23.1203,-134.9692,75.24,74,3,11.56,PF,1621747357
Westport,41.1415,-73.3579,77.76,80,1,7.36,US,1621747613
Kapaa,22.0752,-159.319,78.78,59,90,9.42,US,1621747390
Lahad Datu,5.0268,118.327,86.36,64,86,4.83,MY,1621747614
Hofn,64.2539,-15.2082,41.41,73,99,12.88,IS,1621747378
Torbay,47.6666,-52.7314,56.88,94,90,24.16,CA,1621747381
Resistencia,-27.4606,-58.9839,54.09,87,0,6.91,AR,1621747615
Saint-Philippe,-21.3585,55.7679,76.55,62,45,11.56,RE,1621747370
Qaanaaq,77.484,-69.3632,18.14,76,82,6.26,GL,1621747357
Nazas,25.2333,-104.1333,71.85,54,96,4.07,MX,1621747615
Nefteyugansk,61.0998,72.6035,68.25,71,100,19.08,RU,1621747465
Aripuanã,-9.1667,-60.6333,76.96,84,100,1.57,BR,1621747615
Saint George,37.1041,-113.5841,61.39,31,1,1.01,US,1621747261
Alushta,44.6667,34.4167,64.69,67,56,12.41,UA,1621747616
George Town,5.4112,100.3354,91.35,66,20,8.05,MY,1621747389
Kapaa,22.0752,-159.319,78.78,59,90,9.42,US,1621747390
Solenzo,12.1833,-4.0833,83.66,53,64,9.53,BF,1621747616
Mossamedes,-15.1961,12.1522,73.76,64,5,2.48,AO,1621747617
Zhangaözen,43.3,52.8,87.01,10,0,22.5,KZ,1621747617
Vaini,-21.2,-175.2,77.16,94,75,2.3,TO,1621747374
Mahébourg,-20.4081,57.7,76.24,73,40,11.5,MU,1621747407
Pimentel,-6.8367,-79.9342,64.99,86,14,1.99,PE,1621747618
Mataura,-46.1927,168.8643,49.48,91,3,0.51,NZ,1621747356
Katsuura,35.1333,140.3,78.24,69,58,7.09,JP,1621747364
Dingle,10.9995,122.6711,89.91,59,28,8.7,PH,1621747363
Hobart,-42.8794,147.3294,66.92,59,75,4.61,AU,1621747357
Mataura,-46.1927,168.8643,49.48,91,3,0.51,NZ,1621747356
Tuktoyaktuk,69.4541,-133.0374,35.26,88,35,11.79,CA,1621747386
Yeppoon,-23.1333,150.7333,78.58,70,14,16.22,AU,1621747619
Airai,-8.9266,125.4092,75.06,48,25,3.29,TL,1621747426
Mount Gambier,-37.8333,140.7667,64.31,42,68,12.66,AU,1621747619
Santa Cruz de la Sierra,-17.8,-63.1667,65.66,41,90,8.93,BO,1621747605
Saskylakh,71.9167,114.0833,34.77,100,71,12.53,RU,1621747361
Markivka,49.5229,39.5705,64.87,72,67,6.89,UA,1621747619
Thompson,55.7435,-97.8558,37.56,60,20,3.44,CA,1621747452
Athabasca,54.7169,-113.2854,53.42,73,5,7.14,CA,1621747620
Saskylakh,71.9167,114.0833,34.77,100,71,12.53,RU,1621747361
Kabo,7.6994,18.629,70.88,91,60,4.52,CF,1621747620
Mataura,-46.1927,168.8643,49.48,91,3,0.51,NZ,1621747356
Busselton,-33.65,115.3333,54.09,81,88,20.87,AU,1621747363
Krasnosel'kup,65.7,82.4667,69.06,49,100,12.03,RU,1621747449
Batemans Bay,-35.7167,150.1833,69.19,74,11,4.7,AU,1621747561
Lüderitz,-26.6481,15.1594,70.14,34,48,13.11,NA,1621747403
Berlevåg,70.8578,29.0864,34.63,57,100,11.83,NO,1621747621
Leningradskiy,69.3833,178.4167,32.27,91,100,10.36,RU,1621747382
Ubari,26.5921,12.7805,83.03,14,0,11.63,LY,1621747621
Mataura,-46.1927,168.8643,49.48,91,3,0.51,NZ,1621747356
Kapaa,22.0752,-159.319,78.78,59,90,9.42,US,1621747390
Chui,-33.6971,-53.4616,51.78,92,79,18.9,UY,1621747370
Margate,51.3813,1.3862,45.7,83,60,1.99,GB,1621747438
Hithadhoo,-0.6,73.0833,84.38,66,94,9.42,MV,1621747274
Mlyniv,50.509,25.6168,53.94,86,14,11.9,UA,1621747622
De Aar,-30.6497,24.0123,42.75,48,2,3.15,ZA,1621747623
Sur,22.5667,59.5289,94.53,42,1,3.4,OM,1621747381
Puerto Ayora,-0.7393,-90.3518,73.54,88,27,4.0,EC,1621747368
Thompson,55.7435,-97.8558,37.56,60,20,3.44,CA,1621747452
Kruisfontein,-34.0033,24.7314,50.09,57,62,7.67,ZA,1621747397
Bluff,-46.6,168.3333,49.8,91,17,13.67,NZ,1621747357
Mil'kovo,54.7167,158.6167,47.37,54,100,5.39,RU,1621747623
Ribeira Grande,38.5167,-28.7,58.57,62,14,4.63,PT,1621747373
Plouzané,48.3833,-4.6167,50.05,77,40,18.52,FR,1621747624
Ambon City,-3.6954,128.1814,87.94,78,40,10.6,ID,1621747398
Vaini,-21.2,-175.2,77.16,94,75,2.3,TO,1621747374
Saint-Philippe,-21.3585,55.7679,76.55,62,45,11.56,RE,1621747370
Saskylakh,71.9167,114.0833,34.77,100,71,12.53,RU,1621747361
Les Cayes,18.2,-73.75,76.75,76,82,3.6,HT,1621747625
Bredasdorp,-34.5322,20.0403,43.92,66,24,4.85,ZA,1621747363
Cabedelo,-6.9811,-34.8339,72.27,77,1,9.22,BR,1621747508
Faya,18.3851,42.4509,75.31,40,0,2.17,SA,1621747625
Heilbron,-27.2812,27.9709,40.42,72,0,5.75,ZA,1621747626
Leningradskiy,69.3833,178.4167,32.27,91,100,10.36,RU,1621747382
Ribeira Grande,38.5167,-28.7,58.57,62,14,4.63,PT,1621747373
Kīranūr,10.5699,78.7868,91.11,52,88,8.55,IN,1621747626
Vaini,-21.2,-175.2,77.16,94,75,2.3,TO,1621747374
Kiunga,-6.1219,141.2906,80.96,93,89,1.77,PG,1621747581
Kapaa,22.0752,-159.319,78.78,59,90,9.42,US,1621747390
Mataura,-46.1927,168.8643,49.48,91,3,0.51,NZ,1621747356
Atuona,-9.8,-139.0333,79.92,75,13,18.39,PF,1621747410
Ushuaia,-54.8,-68.3,35.26,93,90,1.14,AR,1621747268
Hithadhoo,-0.6,73.0833,84.38,66,94,9.42,MV,1621747274
Puerto Ayora,-0.7393,-90.3518,73.54,88,27,4.0,EC,1621747368
Saint Paul Harbor,57.79,-152.4072,51.31,66,1,5.75,US,1621747376
Tefé,-3.3542,-64.7114,74.19,98,100,1.32,BR,1621747628
Port Elizabeth,-33.918,25.5701,44.89,81,0,3.44,ZA,1621747153
Winnemucca,40.973,-117.7357,41.05,66,90,7.52,US,1621747628
Katsuura,35.1333,140.3,78.24,69,58,7.09,JP,1621747364
Santa Vitória do Palmar,-33.5189,-53.3681,52.12,91,88,22.1,BR,1621747628
Mar del Plata,-38.0023,-57.5575,57.09,63,90,1.01,AR,1621747400
Steinbach am Taunus,50.1667,8.5667,51.6,84,20,9.08,DE,1621747582
Bambous Virieux,-20.3428,57.7575,76.21,70,40,16.73,MU,1621747400
Taoudenni,22.6783,-3.9836,90.97,23,13,3.38,ML,1621747629
Awjilah,29.1081,21.2869,70.07,33,0,9.8,LY,1621747629
Punta Arenas,-53.15,-70.9167,37.51,89,90,6.02,CL,1621747339
Staryy Nadym,65.6118,72.6842,64.13,56,100,16.8,RU,1621747577
Arraial do Cabo,-22.9661,-42.0278,73.72,77,94,3.15,BR,1621747422
Iskateley,67.6803,53.1512,50.54,71,67,16.84,RU,1621747407
Busselton,-33.65,115.3333,54.09,81,88,20.87,AU,1621747363
Cockburn Town,21.4612,-71.1419,77.61,76,87,18.3,TC,1621747630
Shimokizukuri,40.8061,140.3861,65.25,94,100,3.98,JP,1621747631
Poya,-21.35,165.15,73.81,62,6,9.51,NC,1621747631
Hobart,-42.8794,147.3294,66.92,59,75,4.61,AU,1621747357
Avarua,-21.2078,-159.775,77.05,73,95,12.66,CK,1621747368
Te Anau,-45.4167,167.7167,46.62,86,2,1.14,NZ,1621747590
Auki,-8.7676,160.7034,83.35,73,100,2.73,SB,1621747632
Nishihara,26.1842,127.7558,85.68,78,75,13.27,JP,1621747632
Ushuaia,-54.8,-68.3,35.26,93,90,1.14,AR,1621747268
Sterling,39.0062,-77.4286,77.59,56,75,5.01,US,1621747436
Grand-Santi,4.25,-54.3833,72.5,100,58,1.86,GF,1621747632
Ushuaia,-54.8,-68.3,35.26,93,90,1.14,AR,1621747268
Saldanha,-33.0117,17.9442,57.94,46,95,8.68,ZA,1621747212
Bozoum,6.3193,16.3799,68.04,96,94,4.88,CF,1621747633
Lebu,-37.6167,-73.65,49.05,89,13,5.55,CL,1621747385
Rikitea,-23.1203,-134.9692,75.24,74,3,11.56,PF,1621747357
Praia,14.9215,-23.5087,72.14,73,20,9.22,CV,1621747436
Cape Town,-33.9258,18.4232,60.12,41,0,4.36,ZA,1621747195
Papetoai,-17.4961,-149.8729,80.19,71,48,13.13,PF,1621747634
Arraial do Cabo,-22.9661,-42.0278,73.72,77,94,3.15,BR,1621747422
Hilo,19.7297,-155.09,73.8,94,90,5.75,US,1621747419
Saint-Philippe,-21.3585,55.7679,76.55,62,45,11.56,RE,1621747370
Porto Walter,-8.2686,-72.7439,73.58,89,19,1.59,BR,1621747634
Ilulissat,69.2167,-51.1,28.42,74,75,10.36,GL,1621747379
Rikitea,-23.1203,-134.9692,75.24,74,3,11.56,PF,1621747357
Riyadh,24.6877,46.7219,100.45,8,0,0.0,SA,1621747547
Mar del Plata,-38.0023,-57.5575,57.09,63,90,1.01,AR,1621747400
Eppelborn,49.4,6.9667,48.34,91,93,5.01,DE,1621747635
Mataura,-46.1927,168.8643,49.48,91,3,0.51,NZ,1621747356
Dikson,73.5069,80.5464,34.27,98,100,25.01,RU,1621747445
Husavik,66.0449,-17.3389,40.91,99,100,9.53,IS,1621747635
Fairbanks,64.8378,-147.7164,50.09,62,90,13.8,US,1621747203
Mataura,-46.1927,168.8643,49.48,91,3,0.51,NZ,1621747356
Babu,24.4167,111.5167,91.8,60,94,3.38,CN,1621747636
Saskylakh,71.9167,114.0833,34.77,100,71,12.53,RU,1621747361
Pisco,-13.7,-76.2167,64.45,82,90,9.22,PE,1621747456
Mataura,-46.1927,168.8643,49.48,91,3,0.51,NZ,1621747356
Rikitea,-23.1203,-134.9692,75.24,74,3,11.56,PF,1621747357
Avarua,-21.2078,-159.775,77.05,73,95,12.66,CK,1621747368
Rikitea,-23.1203,-134.9692,75.24,74,3,11.56,PF,1621747357
Horta,38.5333,-28.6333,57.63,64,25,4.38,PT,1621747637
Alta,69.9689,23.2717,34.86,51,90,4.61,NO,1621747637
Ancud,-41.8697,-73.8203,55.22,93,100,13.56,CL,1621747429
Nanortalik,60.1432,-45.2371,33.69,69,100,1.3,GL,1621747565
Ponta do Sol,32.6667,-17.1,64.0,76,91,10.11,PT,1621747366
Saint Paul Harbor,57.79,-152.4072,51.31,66,1,5.75,US,1621747376
Hithadhoo,-0.6,73.0833,84.38,66,94,9.42,MV,1621747274
Saint Paul Harbor,57.79,-152.4072,51.31,66,1,5.75,US,1621747376
Havøysund,70.9963,24.6622,38.28,54,97,5.59,NO,1621747387
Kurikka,62.6167,22.4167,38.86,89,95,3.4,FI,1621747638
Buala,-8.145,159.5921,82.62,79,100,5.01,SB,1621747639
Kapaa,22.0752,-159.319,78.78,59,90,9.42,US,1621747390
Albany,42.6001,-73.9662,70.81,60,37,7.0,US,1621747105
Mataura,-46.1927,168.8643,49.48,91,3,0.51,NZ,1621747356
Mangan,27.5167,88.5333,86.95,53,1,6.71,IN,1621747640
Atuona,-9.8,-139.0333,79.92,75,13,18.39,PF,1621747410
Hambantota,6.1241,81.1185,84.54,68,40,20.24,LK,1621747487
Hobart,-42.8794,147.3294,66.92,59,75,4.61,AU,1621747357
Punta Arenas,-53.15,-70.9167,37.51,89,90,6.02,CL,1621747339
Hermanus,-34.4187,19.2345,59.9,50,32,7.65,ZA,1621747365
Provideniya,64.3833,-173.3,37.2,75,91,4.52,RU,1621747360
Albany,42.6001,-73.9662,70.81,60,37,7.0,US,1621747105
Ambunti,-4.2365,142.8448,84.81,82,100,0.67,PG,1621747641
Fairbanks,64.8378,-147.7164,50.09,62,90,13.8,US,1621747203
Bredasdorp,-34.5322,20.0403,43.92,66,24,4.85,ZA,1621747363
Kaitangata,-46.2817,169.8464,51.93,81,6,4.61,NZ,1621747419
Srednekolymsk,67.45,153.6833,46.6,53,24,12.73,RU,1621747393
Beneditinos,-5.45,-42.3667,79.93,78,26,2.48,BR,1621747642
Cherskiy,68.75,161.3,40.6,55,70,3.2,RU,1621747365
Mount Isa,-20.7333,139.5,82.17,26,0,9.22,AU,1621747387
Bluff,-46.6,168.3333,49.8,91,17,13.67,NZ,1621747357
Vaini,-21.2,-175.2,77.16,94,75,2.3,TO,1621747374
Karratha,-20.7377,116.8463,86.2,19,20,11.86,AU,1621747383
Kavaratti,10.5669,72.642,82.2,76,100,7.02,IN,1621747643
Cayenne,4.9333,-52.3333,77.09,90,75,4.0,GF,1621747533
Rikitea,-23.1203,-134.9692,75.24,74,3,11.56,PF,1621747357
Punta Arenas,-53.15,-70.9167,37.51,89,90,6.02,CL,1621747339
Hilo,19.7297,-155.09,73.8,94,90,5.75,US,1621747419
Lüderitz,-26.6481,15.1594,70.14,34,48,13.11,NA,1621747403
Cockburn Town,21.4612,-71.1419,77.61,76,87,18.3,TC,1621747630
Ushuaia,-54.8,-68.3,35.26,93,90,1.14,AR,1621747268
Khatanga,71.9667,102.5,34.95,99,100,7.76,RU,1621747359
Port Augusta,-32.5,137.7667,77.7,23,77,13.82,AU,1621747644
Upernavik,72.7868,-56.1549,20.93,95,78,7.14,GL,1621747367
Lorengau,-2.0226,147.2712,83.59,78,98,5.32,PG,1621747380
Busselton,-33.65,115.3333,54.09,81,88,20.87,AU,1621747363
Ust-Nera,64.5667,143.2,41.32,91,100,1.81,RU,1621747644
Mayo,38.8876,-76.5119,78.75,56,1,4.0,US,1621747645
Dunda,-8.1167,34.25,61.61,69,88,3.76,TZ,1621747645
Zhigansk,66.7697,123.3711,44.64,39,69,2.26,RU,1621747423
Ushuaia,-54.8,-68.3,35.26,93,90,1.14,AR,1621747268
Cape Town,-33.9258,18.4232,60.12,41,0,4.36,ZA,1621747195
Calabozo,8.9242,-67.4293,81.21,63,64,6.17,VE,1621747628
Hjelset,62.7833,7.4833,54.05,66,90,3.78,NO,1621747646
Muros,42.7762,-9.0603,52.84,83,13,3.85,ES,1621747646
Gazli,40.1333,63.45,85.15,19,0,13.29,UZ,1621747646
Busselton,-33.65,115.3333,54.09,81,88,20.87,AU,1621747363
Albany,42.6001,-73.9662,70.81,60,37,7.0,US,1621747105
Ushuaia,-54.8,-68.3,35.26,93,90,1.14,AR,1621747268
Sumter,28.7086,-82.0831,70.11,79,95,6.87,US,1621747647
Busselton,-33.65,115.3333,54.09,81,88,20.87,AU,1621747363
Chapais,49.7834,-74.8492,42.58,95,100,9.71,CA,1621747647
Tuatapere,-46.1333,167.6833,49.82,87,15,5.77,NZ,1621747597
Nālūt,30.3333,10.85,75.67,29,0,9.06,LY,1621747648
Saint-Raymond,45.467,-73.6095,69.82,94,1,2.3,CA,1621747648
Yellowknife,62.456,-114.3525,55.29,54,20,5.75,CA,1621747364
Chokurdakh,70.6333,147.9167,31.44,91,85,5.59,RU,1621747406
Arrecife,28.963,-13.5477,66.27,68,0,24.16,ES,1621747648
Rikitea,-23.1203,-134.9692,75.24,74,3,11.56,PF,1621747357
Bluff,-46.6,168.3333,49.8,91,17,13.67,NZ,1621747357
Severo-Yeniseyskiy,60.3725,93.0408,43.86,91,100,6.6,RU,1621747649
Newport,51.5877,-2.9984,48.74,85,99,10.78,GB,1621747649
Ushuaia,-54.8,-68.3,35.26,93,90,1.14,AR,1621747268
Hobart,-42.8794,147.3294,66.92,59,75,4.61,AU,1621747357
Yellowknife,62.456,-114.3525,55.29,54,20,5.75,CA,1621747364
Vaini,-21.2,-175.2,77.16,94,75,2.3,TO,1621747374
Atuona,-9.8,-139.0333,79.92,75,13,18.39,PF,1621747410
Port Elizabeth,-33.918,25.5701,44.89,81,0,3.44,ZA,1621747153
Ushuaia,-54.8,-68.3,35.26,93,90,1.14,AR,1621747268
Port Alberni,49.2413,-124.8028,62.44,82,98,4.32,CA,1621747650
Longyearbyen,78.2186,15.6401,20.43,83,27,2.13,SJ,1621747392
Chumikan,54.7183,135.315,34.57,98,100,16.33,RU,1621747413
Severo-Kuril'sk,50.6789,156.125,45.75,66,9,2.73,RU,1621747423
Faanui,-16.4833,-151.75,81.61,70,13,13.51,PF,1621747419
Shenjiamen,29.9576,122.298,66.51,97,100,12.19,CN,1621747651
Horadiz,39.4488,47.3353,81.37,43,65,2.42,AZ,1621747651
Beloha,-25.1667,45.05,68.74,76,96,6.87,MG,1621747652
Constantine,36.365,6.6147,67.41,55,40,3.44,DZ,1621747652
Chokurdakh,70.6333,147.9167,31.44,91,85,5.59,RU,1621747406
São Paulo de Olivença,-3.3783,-68.8725,74.1,99,87,1.28,BR,1621747652
Waitati,-45.75,170.5667,52.81,68,1,1.61,NZ,1621747653
Hilo,19.7297,-155.09,73.8,94,90,5.75,US,1621747419
Zavet,43.7667,26.6667,64.22,67,100,1.52,BG,1621747653
Te Anau,-45.4167,167.7167,46.62,86,2,1.14,NZ,1621747590
Huarmey,-10.0681,-78.1522,63.99,87,21,4.54,PE,1621747653
Yangi Marg`ilon,40.4272,71.7189,78.22,36,85,6.91,UZ,1621747408
Waddān,29.1614,16.139,75.61,29,0,12.93,LY,1621747654
Wabana,47.6332,-52.9481,56.68,100,90,8.01,CA,1621747654
Ust'-Kan,50.9276,84.761,65.57,48,9,5.14,RU,1621747654
Punta Arenas,-53.15,-70.9167,37.51,89,90,6.02,CL,1621747339
Lebu,-37.6167,-73.65,49.05,89,13,5.55,CL,1621747385
Ushuaia,-54.8,-68.3,35.26,93,90,1.14,AR,1621747268
Katsuura,35.1333,140.3,78.24,69,58,7.09,JP,1621747364
Itambé,-15.245,-40.6244,63.64,85,87,1.21,BR,1621747655
Butaritari,3.0707,172.7902,83.44,80,100,18.86,KI,1621747371
Tiksi,71.6872,128.8694,30.9,76,71,5.77,RU,1621747447
Longyearbyen,78.2186,15.6401,20.43,83,27,2.13,SJ,1621747392
Jamestown,42.097,-79.2353,67.64,68,40,8.05,US,1621747358
Deputatsky,69.3,139.9,28.85,85,100,3.89,RU,1621747412
Mataura,-46.1927,168.8643,49.48,91,3,0.51,NZ,1621747356
Hilo,19.7297,-155.09,73.8,94,90,5.75,US,1621747419
Saint-Estève,42.7131,2.843,59.99,60,0,11.5,FR,1621747656
Benjamín Aceval,-24.9667,-57.5667,51.94,61,4,5.06,PY,1621747657
Chui,-33.6971,-53.4616,51.78,92,79,18.9,UY,1621747370
Lebu,-37.6167,-73.65,49.05,89,13,5.55,CL,1621747385
Hobart,-42.8794,147.3294,66.92,59,75,4.61,AU,1621747357
Pisco,-13.7,-76.2167,64.45,82,90,9.22,PE,1621747456
Kruisfontein,-34.0033,24.7314,50.09,57,62,7.67,ZA,1621747397
Thompson,55.7435,-97.8558,37.56,60,20,3.44,CA,1621747452
Severnyy,50.677,36.5532,62.64,55,0,2.24,RU,1621747658
Thompson,55.7435,-97.8558,37.56,60,20,3.44,CA,1621747452
Tashtagol,52.7657,87.8894,54.36,91,100,4.32,RU,1621747658
Jurm,36.8648,70.8342,64.22,46,100,4.16,AF,1621747658
Avera,33.194,-82.5271,69.31,62,100,5.35,US,1621747659
Albany,42.6001,-73.9662,70.81,60,37,7.0,US,1621747105
Grindavik,63.8424,-22.4338,40.95,76,0,7.0,IS,1621747407
Warwick,41.7001,-71.4162,73.44,73,1,4.61,US,1621747378
